City_ID,City,Lat,Lng,Max Temp,Humidity,Cloudiness,Wind Speed,Country,Date
0,kangaatsiaq,68.3065,-53.4641,-14.53,98,100,11.61,GL,1644476513
1,rikitea,-23.1203,-134.9692,79.14,74,19,19.37,PF,1644476494
2,mahebourg,-20.4081,57.7,80.58,69,10,7.29,MU,1644476518
3,barrow,71.2906,-156.7887,-16.58,63,100,6.91,US,1644476453
4,perth,-31.9333,115.8333,102.38,23,0,13.8,AU,1644476289
5,saint-philippe,-21.3585,55.7679,83.75,73,14,8.23,RE,1644476526
6,beringovskiy,63.05,179.3167,-24.34,92,19,6.46,RU,1644476529
7,vaini,-21.2,-175.2,80.69,83,34,20.74,TO,1644476531
8,tateyama,34.9833,139.8667,37.42,96,100,24.05,JP,1644476533
9,sterling,39.0062,-77.4286,45.93,59,40,5.75,US,1644476536
10,fairbanks,64.8378,-147.7164,-0.9,79,100,3.44,US,1644476260
11,pauini,-7.7136,-66.9764,71.78,98,100,2.17,BR,1644476540
12,saskylakh,71.9167,114.0833,-0.17,94,100,14.2,RU,1644476542
13,comodoro rivadavia,-45.8667,-67.5,60.66,29,20,23.02,AR,1644476322
14,junction city,39.0286,-96.8314,44.82,52,100,12.66,US,1644476547
15,khatanga,71.9667,102.5,1.22,94,100,16.67,RU,1644476504
16,kismayo,-0.3582,42.5454,82.76,65,45,18.16,SO,1644476551
17,coihaique,-45.5752,-72.0662,38.71,97,25,5.82,CL,1644476554
18,altamira,-3.2033,-52.2064,70.3,99,100,1.1,BR,1644476556
19,biak,-0.9131,122.8766,83.62,68,92,0.76,ID,1644476558
20,punta arenas,-53.15,-70.9167,44.71,70,40,24.16,CL,1644476267
21,kimberley,-28.7323,24.7623,78.49,47,0,1.14,ZA,1644476539
22,korla,41.7597,86.1469,33.62,39,87,2.28,CN,1644476567
23,avarua,-21.2078,-159.775,77.05,94,100,9.22,CK,1644476571
24,carnarvon,-24.8667,113.6333,86.29,55,0,20.13,AU,1644476507
25,zheleznodorozhnyy,55.7503,38.0042,32.22,96,100,8.16,RU,1644476576
26,gat,31.61,34.7642,49.41,100,99,18.88,IL,1644476578
27,hami,42.8,93.45,32.99,35,100,3.69,CN,1644476580
28,puerto baquerizo moreno,-0.9,-89.6,73.4,86,32,8.46,EC,1644476583
29,mataura,-46.1927,168.8643,66.47,65,37,4.52,NZ,1644476585
30,lazo,43.3817,133.9014,33.82,59,87,1.39,RU,1644476527
31,la ronge,55.1001,-105.2842,26.94,97,100,8.08,CA,1644476590
32,sakakah,29.9697,40.2064,53.51,50,0,12.12,SA,1644476592
33,san cristobal,7.7669,-72.225,65.37,84,100,1.41,VE,1644476594
34,port lincoln,-34.7333,135.8667,68.52,58,0,14.99,AU,1644476596
35,dikson,73.5069,80.5464,1.53,94,100,20.38,RU,1644476603
36,katsuura,35.1333,140.3,37.51,91,100,11.18,JP,1644476605
37,bredasdorp,-34.5322,20.0403,64.27,74,100,6.51,ZA,1644476610
38,viedma,-40.8135,-62.9967,73.06,60,100,13.4,AR,1644476452
39,hilo,19.7297,-155.09,69.24,94,34,1.01,US,1644476459
40,port alfred,-33.5906,26.891,74.01,64,0,10.36,ZA,1644476328
41,busselton,-33.65,115.3333,96.04,36,64,11.12,AU,1644476576
42,mikhaylovka,50.06,43.2379,28.78,94,100,8.88,RU,1644476621
43,yumen,40.2833,97.2,30.87,27,100,15.1,CN,1644476623
44,najran,17.4924,44.1277,70.38,22,0,3.56,SA,1644476627
45,lagoa,39.05,-27.9833,57.92,70,5,13.4,PT,1644476630
46,hofn,64.2539,-15.2082,18.82,63,15,9.48,IS,1644476471
47,kalmunai,7.4167,81.8167,83.16,70,57,6.85,LK,1644476634
48,fortuna,40.5982,-124.1573,55.09,100,0,12.66,US,1644476638
49,batagay-alyta,67.8006,130.4114,-24.41,89,47,3.18,RU,1644476641
50,dunedin,-45.8742,170.5036,65.8,90,37,1.99,NZ,1644476643
51,maputo,-25.9653,32.5892,83.88,61,20,3.44,MZ,1644476645
52,longyearbyen,78.2186,15.6401,15.64,86,75,6.91,SJ,1644476648
53,ushuaia,-54.8,-68.3,40.21,96,100,9.04,AR,1644476650
54,pisco,-13.7,-76.2167,70.02,94,40,3.44,PE,1644476652
55,cape town,-33.9258,18.4232,69.12,85,62,1.01,ZA,1644476655
56,tual,-5.6667,132.75,81.82,76,83,5.35,ID,1644476657
57,peniche,39.3558,-9.3811,55.62,82,89,8.52,PT,1644476659
58,nome,64.5011,-165.4064,-16.53,69,0,5.75,US,1644476662
59,bluff,-46.6,168.3333,66.79,88,98,9.57,NZ,1644476664
60,kapaa,22.0752,-159.319,71.92,82,100,3.44,US,1644476666
61,mahon,39.8885,4.2658,50.56,81,40,3.44,ES,1644476669
62,emba,48.8264,58.1442,16.79,87,93,12.8,KZ,1644476671
63,mezen,65.8522,44.24,20.62,93,96,10.54,RU,1644476673
64,iqaluit,63.7506,-68.5145,-25.87,75,0,0.0,CA,1644476450
65,hamilton,39.1834,-84.5333,39.83,77,14,1.99,US,1644476435
66,atuona,-9.8,-139.0333,78.44,77,17,17.07,PF,1644476680
67,sakaiminato,35.55,133.2333,46.65,57,19,10.71,JP,1644476682
68,hermanus,-34.4187,19.2345,64.9,83,100,4.12,ZA,1644476684
69,albany,42.6001,-73.9662,39.81,72,100,4.61,US,1644476407
70,paamiut,61.994,-49.6678,16.5,76,100,14.47,GL,1644476592
71,tura,25.5198,90.2201,73.42,42,17,5.88,IN,1644476693
72,katghora,22.5,82.55,83.8,33,45,1.52,IN,1644476695
73,saint-pierre,-21.3393,55.4781,83.84,69,0,11.5,RE,1644476698
74,provideniya,64.3833,-173.3,-18.36,90,34,5.17,RU,1644476702
75,qinhuangdao,39.9317,119.5883,43.36,42,0,9.78,CN,1644476707
76,georgetown,5.4112,100.3354,85.95,72,20,5.75,MY,1644476709
77,nioki,-2.7167,17.6833,79.18,72,100,3.36,CD,1644476711
78,cherskiy,68.75,161.3,-41.93,100,96,5.01,RU,1644476714
79,constitucion,-35.3333,-72.4167,57.45,86,30,7.34,CL,1644476716
80,padang,-0.9492,100.3543,87.85,60,100,2.86,ID,1644476718
81,wanaka,-44.7,169.15,69.51,57,0,8.86,NZ,1644476721
82,port hueneme,34.1478,-119.1951,74.32,31,0,5.75,US,1644476686
83,biaora,23.8667,76.9167,72.81,29,1,9.26,IN,1644476727
84,luderitz,-26.6481,15.1594,77.95,45,21,16.8,NA,1644476729
85,yellowknife,62.456,-114.3525,-5.58,83,100,17.27,CA,1644476469
86,myitkyina,25.3833,97.4,79.95,28,0,2.8,MM,1644476734
87,jamestown,42.097,-79.2353,36.01,64,100,6.91,US,1644476736
88,bowen,-20.0167,148.2333,80.64,66,96,7.7,AU,1644476738
89,lucea,18.451,-78.1736,73.26,80,5,4.7,JM,1644476741
90,langsa,4.4683,97.9683,87.1,61,100,2.84,ID,1644476743
91,chiredzi,-21.05,31.6667,88.2,40,1,4.16,ZW,1644476745
92,narsaq,60.9167,-46.05,14.22,69,22,8.66,GL,1644476453
93,bambous virieux,-20.3428,57.7575,80.8,68,9,7.99,MU,1644476736
94,aguazul,5.1728,-72.5471,72.77,83,98,2.91,CO,1644476752
95,itarema,-2.9248,-39.9167,76.55,82,79,7.49,BR,1644476754
96,butaritari,3.0707,172.7902,82.17,78,90,17.81,KI,1644476756
97,mar del plata,-38.0023,-57.5575,66.87,85,6,14.0,AR,1644476576
98,bengkulu,-3.8004,102.2655,80.08,65,100,4.27,ID,1644476761
99,cedar falls,42.5278,-92.4455,26.92,79,100,19.57,US,1644476698
100,pizhanka,57.4604,48.542,23.86,95,100,14.79,RU,1644476765
101,saint george,37.1041,-113.5841,55.99,37,0,21.85,US,1644476531
102,namibe,-15.1961,12.1522,72.81,80,100,1.88,AO,1644476770
103,faanui,-16.4833,-151.75,80.89,78,92,13.44,PF,1644476509
104,cabo san lucas,22.8909,-109.9124,69.51,73,11,4.0,MX,1644476678
105,sao joao da barra,-21.6403,-41.0511,69.46,96,100,8.77,BR,1644476776
106,nedjo,9.5046,35.5019,74.88,26,6,4.92,ET,1644476783
107,cascais,38.6979,-9.4215,55.51,68,100,15.01,PT,1644476503
108,tuktoyaktuk,69.4541,-133.0374,-11.85,96,100,11.41,CA,1644476787
109,chanika,-5.4167,38.0167,79.47,55,95,3.27,TZ,1644476789
110,lopatino,52.6195,45.8118,23.95,95,100,4.47,RU,1644476792
111,palmer,42.1584,-72.3287,34.66,86,0,4.61,US,1644476794
112,aasiaat,68.7098,-52.8699,-9.78,97,100,16.4,GL,1644476796
113,puerto ayora,-0.7393,-90.3518,72.66,87,56,5.77,EC,1644476500
114,solnechnyy,50.7214,136.6319,9.32,95,100,2.66,RU,1644476801
115,honiara,-9.4333,159.95,81.39,83,91,7.72,SB,1644476803
116,erzin,36.9559,36.2,48.72,77,100,4.79,TR,1644476805
117,port blair,11.6667,92.75,86.04,62,40,9.22,IN,1644476808
118,ponta do sol,32.6667,-17.1,69.01,59,95,3.62,PT,1644476731
119,cidreira,-30.1811,-50.2056,71.4,74,19,12.41,BR,1644476812
120,upernavik,72.7868,-56.1549,-16.74,82,100,10.54,GL,1644476817
121,ivanovka,42.8878,75.085,25.23,50,39,1.14,KG,1644476819
122,caravelas,-17.7125,-39.2481,73.87,92,6,3.2,BR,1644476823
123,chardara,41.2547,67.9692,49.12,39,0,10.02,KZ,1644476826
124,kamennomostskiy,44.2983,40.1856,34.9,71,8,2.71,RU,1644476828
125,natal,-5.795,-35.2094,75.85,88,20,4.61,BR,1644476669
126,cairns,-16.9167,145.7667,88.11,65,55,6.91,AU,1644476832
127,novyye burasy,52.1324,46.0714,28.92,96,98,3.78,RU,1644476835
128,hasaki,35.7333,140.8333,41.4,88,100,20.92,JP,1644476837
129,boissevain,49.2306,-100.0559,20.64,95,88,9.64,CA,1644476839
130,sur,22.5667,59.5289,75.45,41,0,8.28,OM,1644476842
131,talara,-4.5772,-81.2719,72.64,76,100,9.66,PE,1644476844
132,nantucket,41.2835,-70.0995,39.31,91,0,10.36,US,1644476777
133,kajaani,64.2273,27.7285,23.05,93,0,8.05,FI,1644476848
134,new norfolk,-42.7826,147.0587,71.92,27,14,10.31,AU,1644476851
135,vardo,70.3705,31.1107,28.6,80,75,20.71,NO,1644476590
136,severo-kurilsk,50.6789,156.125,29.68,76,98,14.16,RU,1644476855
137,san vicente,-26.6167,-54.1333,60.26,57,0,1.92,AR,1644476857
138,tiksi,71.6872,128.8694,-12.03,92,99,14.38,RU,1644476860
139,necochea,-38.5473,-58.7368,62.04,74,5,13.89,AR,1644476862
140,yerbogachen,61.2767,108.0108,-7.6,90,100,6.15,RU,1644476864
141,romny,50.751,33.4747,34.3,100,100,13.22,UA,1644476867
142,yoichi,43.2039,140.7703,34.77,68,43,2.68,JP,1644476869
143,alyangula,-13.8483,136.4192,85.89,68,89,14.45,AU,1644476871
144,qaanaaq,77.484,-69.3632,-22.77,60,82,7.11,GL,1644476874
145,ramgarh,23.6333,85.5167,75.25,38,9,0.16,IN,1644476876
146,rawson,-43.3002,-65.1023,64.76,68,100,11.07,AR,1644476878
147,taoudenni,22.6783,-3.9836,58.55,30,0,12.44,ML,1644476881
148,rosetta,31.4044,30.4164,55.92,61,97,20.33,EG,1644476883
149,rio verde de mato grosso,-18.9181,-54.8442,69.21,77,96,1.25,BR,1644476658
150,krasnoselkup,65.7,82.4667,-4.29,85,9,9.82,RU,1644476887
151,rio grande,-32.035,-52.0986,57.94,70,0,12.3,BR,1644476890
152,luanda,-8.8368,13.2343,78.8,73,75,3.44,AO,1644476892
153,north bend,43.4065,-124.2243,51.08,99,0,0.0,US,1644476710
154,itoman,26.1247,127.6694,64.78,71,75,25.32,JP,1644476896
155,nishihara,26.1842,127.7558,64.06,73,100,25.32,JP,1644476899
156,pevek,69.7008,170.3133,-30.69,99,100,2.77,RU,1644476901
157,margate,51.3813,1.3862,44.31,92,100,5.01,GB,1644476903
158,omsukchan,62.5333,155.8,-24.07,80,74,3.98,RU,1644476906
159,santo tomas,14.1079,121.1414,89.58,49,23,13.29,PH,1644476908
160,kropotkin,45.4375,40.5756,34.66,86,81,9.24,RU,1644476910
161,burgeo,47.6167,-57.6152,31.15,80,6,9.64,CA,1644476915
162,nemuro,43.3236,145.575,24.69,69,6,4.03,JP,1644476917
163,kodinar,20.7903,70.7031,81.79,31,6,11.52,IN,1644476920
164,pangnirtung,66.1451,-65.7125,-23.21,88,11,7.25,CA,1644476668
165,torres,-29.3353,-49.7269,68.83,88,77,3.85,BR,1644476924
166,aklavik,68.2191,-135.0107,-16.85,96,100,6.22,CA,1644476926
167,kapuskasing,49.4169,-82.4331,19.04,94,100,11.54,CA,1644476779
168,bintulu,3.1667,113.0333,81.68,83,87,7.94,MY,1644476931
169,hithadhoo,-0.6,73.0833,82.13,72,74,12.53,MV,1644476933
170,sobolevo,54.4299,31.8996,34.12,91,51,16.46,RU,1644476935
171,treinta y tres,-33.2333,-54.3833,57.99,90,0,5.39,UY,1644476733
172,lebu,-37.6167,-73.65,57.81,85,100,23.09,CL,1644476940
173,takoradi,4.8845,-1.7554,78.48,87,19,5.23,GH,1644476942
174,chuy,-33.6971,-53.4616,62.87,86,5,5.79,UY,1644476944
175,kamenka,51.3223,42.7678,27.75,96,100,7.2,RU,1644476947
176,codrington,-38.2667,141.9667,65.52,53,49,13.42,AU,1644476949
177,adrar,20.5022,-10.0711,59.14,21,100,12.21,MR,1644476951
178,vao,-22.6667,167.4833,80.2,91,100,37.04,NC,1644476954
179,katherine,-14.4667,132.2667,93.52,43,81,11.5,AU,1644476956
180,sitka,57.0531,-135.33,39.09,81,100,14.97,US,1644476958
181,vila franca do campo,37.7167,-25.4333,57.2,78,40,8.59,PT,1644476961
182,beloha,-25.1667,45.05,84.56,57,18,5.64,MG,1644476963
183,sangar,63.9242,127.4739,-25.67,97,57,2.33,RU,1644476965
184,coquimbo,-29.9533,-71.3436,64.13,88,100,5.75,CL,1644476970
185,samarai,-10.6167,150.6667,82.81,67,18,15.23,PG,1644476972
186,santa luzia,-19.7697,-43.8514,67.1,98,100,1.9,BR,1644476974
187,castro,-24.7911,-50.0119,59.86,88,99,7.45,BR,1644476977
188,esperance,-33.8667,121.9,81.59,51,29,18.68,AU,1644476979
189,uchiza,-8.4592,-76.4633,69.08,96,100,1.48,PE,1644476981
190,salalah,17.0151,54.0924,77.04,21,84,3.31,OM,1644476984
191,kodinsk,58.6881,99.1844,0.09,85,97,4.36,RU,1644476877
192,asau,46.4333,26.4,39.4,86,43,6.46,RO,1644476988
193,harper,4.375,-7.7169,77.16,88,58,3.51,LR,1644476990
194,saint-francois,46.4154,3.9054,36.55,81,3,2.35,FR,1644476993
195,kells,53.7264,-6.8792,37.67,76,3,14.16,IE,1644476995
196,sao jose da coroa grande,-8.8978,-35.1478,78.57,73,87,7.58,BR,1644476997
197,matagami,49.7502,-77.6328,28.51,93,100,3.44,CA,1644477000
198,chalus,36.655,51.4204,60.35,52,12,5.86,IR,1644477002
199,saldanha,-33.0117,17.9442,65.73,87,32,10.29,ZA,1644477007
200,egvekinot,66.3167,-179.1667,-25.85,87,80,6.17,RU,1644477009
201,sarangani,5.4033,125.4636,82.04,79,84,22.15,PH,1644477011
202,puri,19.8,85.85,82.92,54,6,8.77,IN,1644477014
203,kurilsk,45.2333,147.8833,23.58,70,99,11.92,RU,1644477016
204,tasiilaq,65.6145,-37.6368,17.76,57,100,8.37,GL,1644477019
205,rocha,-34.4833,-54.3333,58.98,93,5,5.79,UY,1644477021
206,kodiak,57.79,-152.4072,15.31,57,0,5.75,US,1644477023
207,mariental,-24.6333,17.9667,79.99,30,60,8.08,NA,1644477025
208,saint-augustin,51.226,-58.6502,10.71,91,7,6.91,CA,1644477028
209,qinggang,46.6833,126.0833,16.93,86,66,6.38,CN,1644477030
210,vanavara,60.34,102.2797,-2.54,85,95,6.38,RU,1644476867
211,zhumadian,32.9794,114.0294,50.95,43,5,5.14,CN,1644477034
212,hovd,48.0056,91.6419,-0.42,90,100,4.27,MN,1644477037
213,thompson,55.7435,-97.8558,-8.99,99,100,4.25,CA,1644476802
214,chandla,25.0833,80.2,71.65,44,0,8.28,IN,1644477041
215,bundaberg,-24.85,152.35,82.22,59,0,5.01,AU,1644477043
216,shenjiamen,29.9576,122.298,43.79,73,100,12.88,CN,1644477046
217,igrim,63.1906,64.4162,13.55,91,100,13.0,RU,1644477048
218,torbay,47.6666,-52.7314,34.57,88,75,28.77,CA,1644477050
219,lons-le-saunier,46.75,5.75,40.19,87,5,5.08,FR,1644477053
220,bud,39.447,-86.1758,39.22,71,46,10.69,US,1644477055
221,los llanos de aridane,28.6585,-17.9182,70.12,43,0,11.01,ES,1644477057
222,quirinopolis,-18.4483,-50.4517,70.27,89,99,1.28,BR,1644477060
223,vernon,50.2581,-119.2691,42.13,99,100,1.74,CA,1644477004
224,husavik,66.0449,-17.3389,7.21,94,47,17.72,IS,1644477064
225,mwingi,-0.9344,38.0601,76.91,47,34,4.74,KE,1644477066
226,east london,-33.0153,27.9116,74.8,55,0,2.55,ZA,1644477069
227,hobart,-42.8794,147.3294,72.27,40,75,6.91,AU,1644477071
228,sao filipe,14.8961,-24.4956,76.57,59,86,7.07,CV,1644477073
229,suntar,62.1444,117.6319,-11.42,91,100,2.13,RU,1644477076
230,menongue,-14.6585,17.691,64.67,89,100,4.14,AO,1644477078
231,whyalla,-33.0333,137.5833,73.24,54,0,21.97,AU,1644477080
232,victoria,22.2855,114.1577,71.19,86,77,5.99,HK,1644476836
233,berbera,10.4396,45.0143,80.38,51,0,14.83,SO,1644477085
234,merauke,-8.4667,140.3333,83.71,77,100,5.46,ID,1644477087
235,aksu,41.1231,80.2644,35.37,37,17,3.74,CN,1644477089
236,hualmay,-11.0964,-77.6139,69.49,84,100,6.67,PE,1644477092
237,rio gallegos,-51.6226,-69.2181,45.1,61,99,22.86,AR,1644477094
238,lasa,46.6166,10.7002,31.3,38,52,2.82,IT,1644477096
239,lesnoy,57.6198,63.0784,10.99,90,64,8.95,RU,1644476843
240,linxia,35.6003,103.2064,27.91,74,100,2.82,CN,1644477101
241,soyo,-6.1349,12.3689,78.39,80,38,3.42,AO,1644477103
242,saint-georges,12.0564,-61.7485,74.88,88,75,8.05,GD,1644476907
243,khandyga,62.6667,135.6,-23.33,98,88,1.16,RU,1644477107
244,moron,-34.6534,-58.6198,73.15,71,0,6.6,AR,1644477110
245,tatarbunary,45.8373,29.6142,40.53,68,100,6.78,UA,1644477112
246,the pas,53.8251,-101.2541,8.62,85,100,12.66,CA,1644477114
247,whitehorse,60.7161,-135.0538,35.31,69,100,17.0,CA,1644477117
248,half moon bay,37.4636,-122.4286,65.25,43,0,0.0,US,1644477119
249,lashio,22.9333,97.75,78.31,21,0,3.42,MM,1644476886
250,abu samrah,35.3029,37.1841,46.98,73,90,11.65,SY,1644477123
251,villarrica,-25.75,-56.4333,66.4,49,0,2.15,PY,1644477126
252,san patricio,28.017,-97.5169,56.84,65,100,7.52,US,1644477128
253,bethel,41.3712,-73.414,36.23,88,0,0.0,US,1644477130
254,kununurra,-15.7667,128.7333,87.78,70,40,13.8,AU,1644477133
255,merzifon,40.8733,35.4631,35.06,70,75,10.36,TR,1644477135
256,mount isa,-20.7333,139.5,96.57,30,40,9.22,AU,1644477137
257,arroyo,41.6096,-4.7969,44.19,58,0,4.61,ES,1644477140
258,cabedelo,-6.9811,-34.8339,75.87,71,29,6.29,BR,1644476954
259,lompoc,34.6391,-120.4579,65.12,65,0,4.61,US,1644477144
260,lorengau,-2.0226,147.2712,81.72,82,91,7.02,PG,1644477146
261,srednekolymsk,67.45,153.6833,-36.26,99,44,6.49,RU,1644477149
262,kavieng,-2.5744,150.7967,83.01,74,23,8.86,PG,1644477151
263,tecoanapa,16.5167,-98.75,72.18,83,0,5.66,MX,1644477153
264,anadyr,64.75,177.4833,-33.74,98,35,5.37,RU,1644477156
265,antofagasta,-23.65,-70.4,65.48,84,0,0.4,CL,1644477160
266,sakassou,7.4546,-5.2926,70.63,35,0,1.77,CI,1644477164
267,bowmore,34.9421,-79.3031,44.89,70,0,0.0,US,1644477167
268,vostok,46.4856,135.8833,19.42,88,98,3.22,RU,1644477171
269,daru,-9.0763,143.2092,84.24,71,100,8.63,PG,1644477173
270,ziarat,30.3823,67.7282,42.39,16,0,6.35,PK,1644477176
271,avera,33.194,-82.5271,48.7,67,0,6.85,US,1644477178
272,petropavlovsk-kamchatskiy,53.0452,158.6483,22.78,74,75,2.24,RU,1644477180
273,ganzhou,28.8184,115.4327,44.46,78,100,3.42,CN,1644477183
274,goundam,16.4145,-3.6708,62.22,12,47,11.97,ML,1644477185
275,jutai,-5.1833,-68.9,70.74,99,100,2.13,BR,1644477189
276,marion,39.7684,-86.1555,37.74,70,100,12.66,US,1644477010
277,rockland,41.1668,-74.0496,38.64,90,81,3.13,US,1644477194
278,clyde river,70.4692,-68.5914,-12.77,77,100,19.57,CA,1644477196
279,hillsborough,37.5741,-122.3794,64.65,44,0,0.0,US,1644477198
280,warrington,53.3925,-2.5802,41.81,79,40,9.22,GB,1644477201
281,ilulissat,69.2167,-51.1,-16.87,95,98,12.95,GL,1644477203
282,nikolskoye,59.7035,30.7861,33.87,91,30,9.33,RU,1644477205
283,micomeseng,2.1462,10.6164,72.72,86,100,1.97,GQ,1644477210
284,geraldton,-28.7667,114.6,90.01,35,0,13.8,AU,1644477212
285,nacogdoches,31.6002,-94.6335,45.79,82,0,0.0,US,1644477214
286,abha,18.2164,42.5053,62.85,39,0,17.27,SA,1644477217
287,soure,-0.7167,-48.5233,75.87,90,82,6.64,BR,1644477219
288,coahuayana,18.7333,-103.6833,64.94,69,0,4.54,MX,1644477221
289,lingao,19.9103,109.6859,72.36,83,100,14.63,CN,1644477226
290,lazaro cardenas,17.9583,-102.2,69.06,82,0,4.68,MX,1644477228
291,zaranj,30.9667,61.8833,61.66,18,0,3.67,AF,1644477230
292,port elizabeth,-33.918,25.5701,74.12,61,0,7.27,ZA,1644477233
293,arraial do cabo,-22.9661,-42.0278,69.51,94,100,3.6,BR,1644477235
294,san rafael,-34.6177,-68.3301,74.41,40,4,8.03,AR,1644477237
295,meulaboh,4.1363,96.1285,81.93,70,100,4.61,ID,1644477240
296,havre-saint-pierre,50.2334,-63.5986,24.44,95,100,1.5,CA,1644477242
297,baoding,38.8511,115.4903,50.29,21,83,8.9,CN,1644477244
298,ohara,35.25,140.3833,37.35,90,100,9.08,JP,1644477249
299,yeppoon,-23.1333,150.7333,89.38,63,8,14.63,AU,1644477251
300,kaitangata,-46.2817,169.8464,63.25,90,34,2.64,NZ,1644477253
301,damghan,36.1683,54.348,46.81,35,83,1.97,IR,1644477256
302,winnemucca,40.973,-117.7357,30.25,80,0,0.0,US,1644477258
303,manado,1.487,124.8455,88.57,66,40,9.22,ID,1644477260
304,ornskoldsvik,63.2909,18.7153,27.55,86,10,11.5,SE,1644477263
305,tarko-sale,64.9225,77.785,-2.06,83,3,12.88,RU,1644477265
306,broome,42.2506,-75.833,40.91,72,40,6.91,US,1644477267
307,evensk,61.95,159.2333,-11.85,78,74,5.48,RU,1644477269
308,amapa,1.0,-52.0,70.39,100,100,2.17,BR,1644477272
309,cayenne,4.9333,-52.3333,76.08,89,75,3.0,GF,1644477274
310,nicoya,10.1483,-85.452,72.52,80,6,3.62,CR,1644477276
311,dali,25.7,100.1833,58.59,30,4,10.0,CN,1644477279
312,gushikawa,26.3544,127.8686,63.99,70,100,17.27,JP,1644477281
313,vanimo,-2.6741,141.3028,84.15,70,63,4.29,PG,1644477283
314,burnie,-41.0667,145.9167,65.95,48,0,14.05,AU,1644477286
315,gubkinskiy,64.434,76.5026,-1.75,85,10,13.96,RU,1644477288
316,arkhangelskoye,55.8549,35.3287,30.69,98,100,8.66,RU,1644477290
317,pontes e lacerda,-15.2261,-59.3353,69.28,97,100,2.08,BR,1644477293
318,airai,-8.9266,125.4092,64.65,96,100,0.36,TL,1644477295
319,pacific grove,36.6177,-121.9166,61.16,49,0,6.91,US,1644477297
320,mount gambier,-37.8333,140.7667,67.53,46,9,10.09,AU,1644477299
321,hervey bay,-25.2986,152.8535,81.03,61,0,8.99,AU,1644477302
322,pangody,65.85,74.4859,-0.58,88,8,15.39,RU,1644477304
323,khani,41.9563,42.9566,33.37,99,100,2.98,GE,1644477307
324,jablanica,43.6603,17.7617,30.27,75,15,2.59,BA,1644477309
325,nichinan,31.6,131.3667,57.76,63,82,4.41,JP,1644477313
326,valparaiso,-33.0393,-71.6273,65.48,81,100,5.75,CL,1644477316
327,gao,16.6362,1.637,65.17,10,0,10.56,ML,1644477318
328,baihar,22.1,80.55,78.8,31,8,4.38,IN,1644477322
329,orsk,51.2049,58.5668,6.55,96,100,6.76,RU,1644477065
330,pankrushikha,53.8319,80.3406,0.0,86,6,6.33,RU,1644477327
331,taiyuan,37.8694,112.5603,39.06,26,0,4.47,CN,1644477329
332,mukhen,48.1,136.1,14.18,92,100,3.83,RU,1644477333
333,roebourne,-20.7833,117.1333,90.01,58,10,17.47,AU,1644477336
334,nador,35.174,-2.9287,51.87,93,40,3.44,MA,1644477338
335,maracaju,-21.6144,-55.1683,63.88,56,1,1.57,BR,1644477340
336,gigmoto,13.7796,124.39,80.38,70,100,12.59,PH,1644477343
337,kaka,37.3482,59.6143,61.47,23,85,7.23,TM,1644477345
338,talnakh,69.4865,88.3972,-5.8,98,100,10.92,RU,1644477347
339,skjervoy,70.0311,20.9714,28.58,57,17,9.84,NO,1644477350
340,bathsheba,13.2167,-59.5167,77.61,69,40,17.27,BB,1644477352
341,carballo,43.213,-8.691,51.76,89,96,3.91,ES,1644477354
342,lang son,21.8333,106.7333,57.69,87,100,0.65,VN,1644477357
343,saurimo,-9.6608,20.3916,70.16,75,100,4.05,AO,1644477359
344,ternate,0.8,127.4,84.29,69,100,5.95,ID,1644477361
345,bubaque,11.2833,-15.8333,77.83,69,0,9.13,GW,1644477364
346,berberati,4.2612,15.7922,76.69,19,88,4.25,CF,1644477366
347,shingu,33.7333,135.9833,47.91,92,100,1.9,JP,1644477368
348,huarmey,-10.0681,-78.1522,70.63,83,100,5.57,PE,1644477086
349,carutapera,-1.195,-46.02,74.35,94,100,4.97,BR,1644477373
350,caucaia,-3.7361,-38.6531,81.03,75,20,4.61,BR,1644477375
351,benavente,42.0025,-5.6783,39.99,81,32,1.81,ES,1644477377
352,abu dhabi,24.4667,54.3667,68.97,75,0,3.0,AE,1644477233
353,sabang,5.8933,95.3214,82.24,75,100,16.24,ID,1644477382
354,motala,58.5371,15.0365,37.18,71,24,8.01,SE,1644477384
355,puerto escondido,15.85,-97.0667,73.92,78,0,4.7,MX,1644477389
356,atar,20.5169,-13.0499,64.08,15,88,10.33,MR,1644477391
357,thinadhoo,0.5333,72.9333,81.82,72,28,11.25,MV,1644477393
358,daitari,21.1,85.75,79.23,42,46,6.89,IN,1644477395
359,pasighat,28.0667,95.3333,62.22,75,100,2.39,IN,1644477398
360,koslan,63.4564,48.8989,22.93,93,100,10.74,RU,1644477400
361,turbat,26.0023,63.044,75.97,10,0,5.1,PK,1644477403
362,kokopo,-4.352,152.2633,83.01,76,98,5.88,PG,1644477405
363,uniara,26.15,75.2167,68.74,34,0,5.55,IN,1644477407
364,buraydah,26.326,43.975,66.65,22,97,14.94,SA,1644477410
365,sisimiut,66.9395,-53.6735,-10.34,99,100,5.97,GL,1644477412
366,auki,-8.7676,160.7034,79.66,86,100,7.34,SB,1644477414
367,dunda,-8.1167,34.25,69.49,86,100,1.7,TZ,1644477419
368,waipawa,-41.4122,175.5153,70.43,71,100,10.31,NZ,1644477421
369,bukoba,-1.3317,31.8122,74.32,66,100,7.96,TZ,1644477423
370,ewo,-0.8725,14.8206,81.59,61,100,6.06,CG,1644477426
371,grand-lahou,5.1367,-5.0242,77.56,92,10,3.51,CI,1644477428
372,nanchang,28.6833,115.8833,46.0,73,100,4.59,CN,1644477430
373,leningradskiy,69.3833,178.4167,-30.17,97,92,6.62,RU,1644477433
374,aksarka,66.5606,67.7975,5.72,95,97,13.65,RU,1644477435
375,mashhad,36.297,59.6062,51.94,46,0,4.61,IR,1644477437
376,marienburg,54.0359,19.0266,42.96,81,100,8.55,PL,1644477440
377,smestad,59.9333,10.6667,36.63,62,1,7.9,NO,1644477442
378,ambilobe,-13.2,49.05,78.55,89,100,7.34,MG,1644477444
379,portland,45.5234,-122.6762,50.97,91,0,1.01,US,1644477155
380,klaksvik,62.2266,-6.589,32.92,65,100,26.82,FO,1644477449
381,kysyl-syr,63.8986,122.7617,-23.46,97,92,1.36,RU,1644477451
382,ulaanbaatar,47.9077,106.8832,5.13,66,75,8.95,MN,1644477177
383,ribeira grande,38.5167,-28.7,55.8,76,20,6.91,PT,1644477455
384,wenling,28.3669,121.36,52.92,76,95,11.72,CN,1644477458
385,sabinopolis,-18.6661,-43.0839,67.05,100,100,2.91,BR,1644477460
386,novyye gorki,56.7253,41.0601,21.11,96,100,4.65,RU,1644477462
387,khaniotis,39.9991,23.58,49.78,65,0,2.35,GR,1644477465
388,nanakuli,21.3906,-158.1547,73.35,75,20,3.44,US,1644477467
389,pathein,16.7833,94.7333,94.39,9,100,2.42,MM,1644477469
390,olga,43.7444,135.2892,29.97,58,100,3.44,RU,1644477472
391,goderich,43.7501,-81.7165,36.21,86,100,13.8,CA,1644477474
392,te anau,-45.4167,167.7167,65.37,73,13,6.11,NZ,1644477476
393,ixtapa,20.7,-105.2,64.22,81,0,3.44,MX,1644477374
394,grand-santi,4.25,-54.3833,72.05,98,100,2.19,GF,1644477481
395,vila velha,-20.3297,-40.2925,73.35,86,100,5.75,BR,1644477483
396,marsh harbour,26.5412,-77.0636,72.41,73,100,9.42,BS,1644477486
397,labuhan,-6.8844,112.2051,81.66,80,100,7.65,ID,1644477488
398,olafsvik,64.8945,-23.7142,32.83,62,100,17.65,IS,1644477490
399,mormugao,15.4,73.8,83.46,51,20,5.75,IN,1644477492
400,lahan,26.7296,86.4951,74.44,43,0,6.62,NP,1644477495
401,gamba,-2.65,10.0,79.0,87,94,5.14,GA,1644477497
402,itaueira,-7.6033,-43.0256,70.5,96,100,2.57,BR,1644477499
403,zhangye,38.9342,100.4517,31.57,30,99,6.64,CN,1644477504
404,ormara,25.2088,64.6357,72.59,24,0,1.39,PK,1644477506
405,teahupoo,-17.8333,-149.2667,76.53,77,10,16.37,PF,1644477510
406,morondava,-20.2833,44.2833,83.37,71,30,5.7,MG,1644477513
407,monte carmelo,-18.7247,-47.4986,65.98,99,100,3.49,BR,1644477515
408,filingue,14.3521,3.3168,66.99,12,23,9.44,NE,1644477517
409,les cayes,18.2,-73.75,73.62,85,14,3.6,HT,1644477520
410,mweka,-4.85,21.5667,75.04,80,60,3.74,CD,1644477522
411,karachi,24.9056,67.0822,78.62,19,0,8.05,PK,1644477419
412,kargasok,59.0556,80.8572,-2.67,89,20,4.34,RU,1644477527
413,paka,4.6374,103.4368,80.53,78,40,11.5,MY,1644477529
414,karratha,-20.7377,116.8463,90.46,56,11,17.85,AU,1644477531
415,naryan-mar,67.6713,53.087,16.93,90,100,22.08,RU,1644477534
416,minbu,20.1833,94.8833,86.13,19,9,4.7,MM,1644477538
417,latung,5.5,120.8833,81.23,77,100,3.91,PH,1644477540
418,bonthe,7.5264,-12.505,73.94,94,3,3.96,SL,1644477516
419,shache,38.4167,77.2406,42.73,27,99,4.85,CN,1644477545
420,kahului,20.8947,-156.47,73.85,75,40,5.01,US,1644477547
421,bilibino,68.0546,166.4372,-38.7,100,74,0.85,RU,1644477549
422,high level,58.5169,-117.136,8.71,92,100,3.44,CA,1644477552
423,jaciara,-15.9653,-54.9683,70.03,98,100,2.44,BR,1644477554
424,berlevag,70.8578,29.0864,26.4,74,0,16.11,NO,1644477556
425,sumbe,-11.2061,13.8437,76.95,66,100,16.6,AO,1644477559
426,chokurdakh,70.6333,147.9167,-22.32,94,96,10.85,RU,1644477561
427,gobabis,-22.45,18.9667,76.69,46,47,10.58,NA,1644477563
428,gasa,31.5,34.4667,49.98,77,100,23.2,PS,1644477566
429,doha,25.2867,51.5333,67.98,57,0,4.61,QA,1644477431
430,santa quiteria,-4.3319,-40.1567,70.41,93,100,1.57,BR,1644477572
431,livingstone,-17.8419,25.8543,76.12,67,5,3.96,ZM,1644477482
432,healdsburg,38.6105,-122.8692,62.44,61,0,1.01,US,1644477577
433,khimki,55.9017,37.4375,31.8,86,100,8.99,RU,1644477579
434,bonnyville,54.2668,-110.735,45.23,96,100,20.94,CA,1644477329
435,marsaxlokk,35.8419,14.5431,55.08,93,0,5.75,MT,1644477583
436,alice springs,-23.7,133.8833,96.22,43,5,10.36,AU,1644477586
437,dudinka,69.4058,86.1778,-5.39,97,100,15.99,RU,1644477588
438,creel,27.75,-107.6333,34.09,50,0,2.35,MX,1644477590
439,isangel,-19.55,169.2667,78.66,93,100,25.17,VU,1644477593
440,fort dodge,42.4975,-94.168,28.49,80,100,6.91,US,1644477597
441,ketchikan,55.3422,-131.6461,45.07,70,75,11.5,US,1644477599
442,petropavlovskoye,52.0712,84.107,4.53,92,78,3.0,RU,1644477602
443,cap malheureux,-19.9842,57.6142,83.46,65,0,4.0,MU,1644477604
444,afzalpur,17.2,76.35,83.21,39,53,7.09,IN,1644477606
445,kembolcha,11.0816,39.7434,68.09,39,13,6.06,ET,1644477609
446,kurumkan,54.3,110.3,5.86,84,99,2.64,RU,1644477611
447,takaka,-40.85,172.8,70.97,99,100,5.1,NZ,1644477613
448,tarata,-17.6167,-66.0167,56.62,84,100,4.21,BO,1644477618
449,bilma,18.6853,12.9164,55.45,45,0,10.16,NE,1644477620
450,magadan,59.5667,150.8,-5.48,78,94,4.81,RU,1644477622
451,tabou,4.423,-7.3528,77.05,89,62,4.12,CI,1644477625
452,flin flon,54.7682,-101.865,7.16,96,100,7.92,CA,1644477335
453,touros,-5.1989,-35.4608,76.1,65,100,6.76,BR,1644477631
454,benguela,-12.5763,13.4055,75.0,63,100,5.68,AO,1644477634
455,yarmouth,41.7057,-70.2286,39.96,88,0,3.44,US,1644477636
456,zhuhai,22.2769,113.5678,70.92,77,40,10.36,CN,1644477638
457,altamont,42.2068,-121.7372,44.78,75,0,1.01,US,1644477640
458,nanortalik,60.1432,-45.2371,18.9,61,67,6.78,GL,1644477643
459,madang,-5.2246,145.7966,81.81,86,98,5.77,PG,1644477645
460,taicheng,38.731,113.228,32.32,34,100,5.03,CN,1644477647
461,mbeya,-8.9,33.45,65.1,87,100,2.55,TZ,1644477650
462,champerico,14.3,-91.9167,75.04,74,2,4.61,GT,1644477652
463,hobyo,5.3505,48.5268,80.6,58,94,23.42,SO,1644477654
464,upington,-28.4478,21.2561,80.98,26,0,2.3,ZA,1644477657
465,grindavik,63.8424,-22.4338,25.27,80,75,13.8,IS,1644477659
466,pingliang,35.5392,106.6861,30.74,84,100,4.5,CN,1644477661
467,muhororo,0.9381,30.7594,84.67,30,41,1.16,UG,1644477664
468,la rioja,42.25,-2.5,33.12,57,0,5.77,ES,1644477666
469,chino valley,34.7575,-112.4538,52.11,40,0,3.44,US,1644477668
470,chapais,49.7834,-74.8492,28.18,94,100,10.45,CA,1644477670
471,nuevo progreso,23.1667,-97.95,57.6,73,92,3.11,MX,1644477673
472,ugoofaaru,5.6667,73.0,81.48,70,45,8.19,MV,1644477675
473,aguimes,27.9054,-15.4461,70.66,46,20,5.75,ES,1644477677
474,nara,34.6851,135.8049,48.9,62,99,5.28,JP,1644477680
475,ancud,-41.8697,-73.8203,50.23,78,0,6.11,CL,1644477393
476,kazuno,40.1836,140.7872,33.04,87,100,3.67,JP,1644477684
477,mbanza-ngungu,-5.25,14.8667,69.98,85,54,4.12,CD,1644477686
478,timmins,48.4669,-81.3331,26.42,93,100,3.44,CA,1644477689
479,alofi,-19.0595,-169.9187,78.69,89,91,3.44,NU,1644477666
480,naze,28.3667,129.4833,58.12,72,86,17.05,JP,1644477693
481,ciudad bolivar,8.1222,-63.5497,73.72,74,100,10.58,VE,1644477695
482,jishou,28.3167,109.7167,40.5,86,100,2.33,CN,1644477698
483,port-cartier,50.0334,-66.8654,28.62,95,100,2.57,CA,1644477700
484,terrace,54.5163,-128.6035,44.51,93,100,23.02,CA,1644477704
485,knysna,-34.0363,23.0471,71.98,79,28,8.34,ZA,1644477707
486,belyy yar,53.6039,91.3903,-4.11,65,0,8.95,RU,1644477709
487,kampot,10.6167,104.1833,87.85,55,100,6.15,KH,1644477711
488,rapid valley,44.0625,-103.1463,40.6,92,100,8.01,US,1644477714
489,curvelo,-18.7564,-44.4308,69.91,87,100,1.59,BR,1644477699
490,yenangyaung,20.4667,94.8833,84.96,19,7,3.38,MM,1644477718
491,chernaya kholunitsa,58.8511,51.7154,23.88,93,100,12.82,RU,1644477720
492,aguada de pasajeros,22.385,-80.8508,68.77,92,80,6.02,CU,1644477723
493,banda aceh,5.5577,95.3222,84.69,69,100,10.31,ID,1644477725
494,berezovyy,51.6667,135.7,12.07,93,100,2.46,RU,1644477727
495,tabuny,52.7773,78.7896,-7.91,94,48,4.83,RU,1644477730
496,udachnyy,66.4167,112.4,-1.55,76,68,2.51,RU,1644477626
497,damaturu,11.747,11.9608,64.99,29,87,10.92,NG,1644477734
498,saint-joseph,-21.3667,55.6167,82.76,73,8,8.14,RE,1644477736
499,cubuk,40.2386,33.0322,35.2,60,40,16.11,TR,1644477739
500,bara,10.3744,10.7288,73.18,13,12,8.03,NG,1644477741
501,ust-nera,64.5667,143.2,-28.44,99,56,3.98,RU,1644477743
502,makat,47.6469,53.3463,33.39,86,100,17.9,KZ,1644477746
503,timaru,-44.4,171.25,69.08,83,0,5.23,NZ,1644477748
504,gisborne,-38.6533,178.0042,81.95,75,99,6.93,NZ,1644477750
505,pathardi,19.1667,75.1833,80.06,27,73,10.98,IN,1644477753
506,carahue,-38.7,-73.1667,52.0,90,100,2.04,CL,1644477755
507,cockburn town,21.4612,-71.1419,77.59,73,0,19.64,TC,1644477592
508,akyab,20.15,92.9,79.77,34,5,9.48,MM,1644477761
509,dakar,14.6937,-17.4441,76.08,49,81,6.91,SN,1644477764
510,nacala,-14.5428,40.6728,79.93,85,100,4.45,MZ,1644477766
511,bereda,43.2686,-7.5406,44.42,100,37,2.21,ES,1644477768
512,pandaria,22.2333,81.4167,81.64,31,66,4.09,IN,1644477555
513,luwingu,-10.2621,29.9271,67.44,85,95,4.88,ZM,1644477773
514,bosaso,11.2842,49.1816,76.98,65,0,5.75,SO,1644477775
515,porto velho,-8.7619,-63.9039,75.25,94,0,2.3,BR,1644477777
516,iracoubo,5.4802,-53.2011,75.22,87,98,5.84,GF,1644477780
517,lavrentiya,65.5833,-171.0,-27.27,93,53,7.05,RU,1644477782
518,lalitpur,27.6667,85.3333,62.98,39,20,8.05,NP,1644477784
519,dauphin,51.1494,-100.0502,17.74,86,100,2.3,CA,1644477761
520,zhob,31.3411,69.4481,50.38,23,0,5.19,PK,1644477789
521,yertsevo,60.7966,40.086,21.7,94,100,7.92,RU,1644477791
522,edd,13.9297,41.6925,85.37,38,6,12.21,ER,1644477793
523,norman wells,65.282,-126.8329,-11.16,70,100,0.0,CA,1644477796
524,bor,56.3567,44.0669,22.93,93,89,4.9,RU,1644477798
525,callaway,30.153,-85.5699,40.93,93,0,3.44,US,1644477800
526,berzence,46.2091,17.1481,33.39,70,8,2.71,HU,1644477803
527,raga,8.4596,25.678,77.07,16,71,8.7,SS,1644477805
528,issia,6.4922,-6.5856,69.6,99,48,1.57,CI,1644477807
529,shimoda,34.6667,138.95,42.91,96,100,11.23,JP,1644477810
530,esso,55.9333,158.7,0.19,100,39,3.85,RU,1644477812
531,waihi,-37.3833,175.8333,77.43,96,61,4.32,NZ,1644477814
532,ladybrand,-29.1945,27.4574,74.41,40,0,6.42,ZA,1644477817
533,herat,34.5,62.0,52.38,26,0,10.27,AF,1644477819
534,faya,18.3851,42.4509,66.31,40,1,6.78,SA,1644477821
535,zhigansk,66.7697,123.3711,-29.54,97,97,9.28,RU,1644477824
536,kruisfontein,-34.0033,24.7314,75.88,51,0,9.42,ZA,1644477826
537,hudson bay,52.85,-102.3842,28.99,97,100,5.26,CA,1644477828
538,corrales,35.2378,-106.6067,43.0,46,0,6.91,US,1644477643
539,harrisburg,40.2737,-76.8844,41.16,77,75,6.91,US,1644477755
540,hanumangarh,29.5833,74.3167,71.29,27,0,5.66,IN,1644477835
541,jalu,29.0331,21.5482,49.35,57,0,8.43,LY,1644477837
542,santa cruz,-17.8,-63.1667,67.46,83,55,5.75,BO,1644477839
543,lafiagi,8.8667,5.4167,75.54,15,5,1.66,NG,1644477842
544,parakou,9.3372,2.6303,71.4,17,70,4.27,BJ,1644477844
545,okha,53.5739,142.9478,20.98,96,100,7.29,RU,1644477846
546,kilifarevo,42.9833,25.6333,40.91,83,2,4.61,BG,1644477849
547,vilhena,-12.7406,-60.1458,67.51,97,100,2.42,BR,1644477851
548,haines junction,60.7522,-137.5108,39.15,48,100,5.75,CA,1644477853
549,parana,-31.732,-60.5238,70.56,59,0,7.9,AR,1644477856
550,manono,-7.3,27.4167,71.53,93,100,3.85,CD,1644477858
551,baykit,61.67,96.37,3.4,83,100,2.82,RU,1644477860
552,ostersund,63.1792,14.6357,29.61,69,0,16.11,SE,1644477863
553,marawi,7.9986,124.2928,71.65,93,100,5.7,PH,1644477865
554,saint anthony,45.0205,-93.218,21.13,74,100,16.11,US,1644477867
555,tucuman,-26.8241,-65.2226,68.0,73,0,5.75,AR,1644477614
556,lumphat,13.4878,106.9816,98.47,29,94,8.14,KH,1644477872
557,manzanillo,20.3433,-77.1167,72.39,80,2,2.86,CU,1644477874
558,anloga,5.7947,0.8973,80.82,86,14,7.18,GH,1644477876
559,oktyabrskiy,54.4815,53.471,20.95,91,100,15.61,RU,1644477879
560,prince rupert,54.3161,-130.3201,44.29,93,100,14.97,CA,1644477668
561,ahipara,-35.1667,173.1667,74.21,82,94,9.19,NZ,1644477883
562,komsomolskiy,40.4272,71.7189,44.02,61,89,2.3,UZ,1644477849
563,yamada,39.4667,141.95,33.98,77,100,3.74,JP,1644477887
564,sibu,2.3,111.8167,88.11,74,40,4.61,MY,1644477890
565,buchanan,5.8808,-10.0467,75.67,93,46,4.07,LR,1644477894
566,neiafu,-18.65,-173.9833,81.79,76,21,22.5,TO,1644477896
567,college,64.8569,-147.8028,-2.25,78,100,9.22,US,1644477899
568,yulara,-25.2406,130.9889,96.64,20,93,9.22,AU,1644477901
569,tuatapere,-46.1333,167.6833,66.81,76,56,2.39,NZ,1644477903
570,manavgat,36.7867,31.4431,52.21,58,0,17.36,TR,1644477908
